address,alt_addr,canonical_addr,used,type,class_,icon,latitude,longitude,found_country,country_code,country_name
"Washington, District of Columbia, USA",,,1,,,,38.8950368,-77.0365427,True,US,USA
"Hope, Hempstead, Arkansas, USA",,,1,,,,33.6670616,-93.5915665,True,US,USA
"Chicago, Cook, Illinois, USA",,,1,,,,41.8755616,-87.6244212,True,US,USA
"Sherman, Grayson, Texas, USA",,,1,,,,33.6398609,-96.6089146,True,US,USA
"Missouri, USA",,,1,,,,38.7604815,-92.5617875,True,US,USA
"Sikeston, Scott, Missouri, USA",,,1,,,,36.876719,-89.5878579,True,US,USA
"Bodcaw, Nevada, Arkansas, USA",,,1,,,,33.5579004,-93.4063842,True,US,USA
"Tippah, Mississippi, USA",,,1,,,,34.7296814,-88.9119403,True,US,USA
"Grayson, Texas, USA",,,1,,,,33.5636114,-96.6702111,True,US,USA
"Parker Twp, Nevada, Arkansas, USA",,,1,,,,33.6413476,-93.3055491,True,US,USA
"Falkner, Tippah, Mississippi, USA",,,1,,,,34.8420376,-88.934228,True,US,USA
"Franklin, Georgia, USA",,,1,,,,34.3678642,-83.2156575,True,US,USA
"Florida, USA",,,1,,,,27.7567667,-81.4639835,True,US,USA
"Kossuth, Alcorn, Mississippi, USA",,,1,,,,34.8732672,-88.6405963,True,US,USA
"Coffee, Alabama, USA",,,1,,,,31.3629619,-85.9870669,True,US,USA
"Red Level, Covington, Alabama, USA",,,1,,,,31.4071111,-86.6121861,True,US,USA
"Covington, Alabama, USA",,,1,,,,31.196549,-86.4597236,True,US,USA
"Butler, Alabama, USA",,,1,,,,31.7340713,-86.6754793,True,US,USA
"Ebenezer Cemetery, Parker, Nevada, Arkansas, USA",,,1,,,,33.6413476,-93.3055491,True,US,USA
"Union, Louisiana, USA",,,1,,,,32.8385899,-92.3910295,True,US,USA
"Oak Grove Cemetery, DeRoan Twp, Hempstead, Arkansas, USA",,,1,,,,33.6949319,-93.6929825,True,US,USA
"Hempstead, Arkansas, USA",,,1,,,,33.6949319,-93.6929825,True,US,USA
"Alabama, USA",,,1,,,,33.2588817,-86.8295337,True,US,USA
"Rutherford, Tennessee, USA",,,1,,,,35.8563421,-86.4205249,True,US,USA
"Tennessee, USA",,,1,,,,35.7730076,-86.2820081,True,US,USA
"Parker, Texas, USA",,,1,,,,32.7772597,-97.8045599,True,US,USA
"North Carolina, USA",,,1,,,,35.6729639,-79.0392919,True,US,USA
"Ripley, Tippah, Mississippi, USA",,,1,,,,34.7307014,-88.9488276,True,US,USA
Ireland,,,1,,,,52.865196,-7.9794599,True,IE,Ireland
"Carnesville, Franklin, Georgia, USA",,,1,,,,34.3698266,-83.235155,True,US,USA
"Chesterfield, South Carolina, USA",,,1,,,,34.6500578,-80.1417843,True,US,USA
"Early, Georgia, USA",,,1,,,,31.3454341,-84.9282058,True,US,USA
"South Carolina, USA",,,1,,,,33.6874388,-80.4363743,True,US,USA
"Kershaw, South Carolina, USA",,,1,,,,34.3334398,-80.5669895,True,US,USA
"Shover Springs, Hempstead, Arkansas, USA",,,1,,,,33.6228953,-93.5304543,True,US,USA
"McMinn, Tennessee, USA",,,1,,,,35.444223,-84.624875,True,US,USA
"Arkansas, USA",,,1,,,,35.2048883,-92.4479108,True,US,USA
"Union, Mississippi, USA",,,1,,,,34.4834555,-88.9789198,True,US,USA
"Marshall, Mississippi, USA",,,1,,,,34.7329208,-89.4725635,True,US,USA
"Randolph, North Carolina, USA",,,1,,,,35.7142874,-79.7975166,True,US,USA
"Kentucky, USA",,,1,,,,37.5726028,-85.1551411,True,US,USA
"Anson, North Carolina, USA",,,1,,,,34.9705848,-80.0958187,True,US,USA
"Orangeburg, South Carolina, USA",,,1,,,,33.4918203,-80.8556476,True,US,USA
"Longstreet, Coffee, Alabama, USA",,,1,,,,31.3629619,-85.9870669,True,US,USA
"Darlington, Darlington, South Carolina, USA",,,1,,,,34.3028537,-79.8710831,True,US,USA
"Ramer, Montgomery, Alabama, USA",,,1,,,,32.0500362,-86.2199457,True,US,USA
"Montgomery, Alabama, USA",,,1,,,,32.37742,-86.3091683,True,US,USA
"Mt. Pleasant, Crenshaw, Alabama, USA",,,1,,,,31.8324874,-86.3114018,True,US,USA
"Crenshaw, Alabama, USA",,,1,,,,31.6809362,-86.3244009,True,US,USA
"Lincoln, North Carolina, USA",,,1,,,,35.4866424,-81.2062724,True,US,USA
"Macon, Tennessee, USA",,,1,,,,36.5237906,-86.0130908,True,US,USA
"Little Rock, Pulaski, Arkansas, USA",,,1,,,,34.7465071,-92.2896267,True,US,USA
"Tipperary, Ireland",,,1,,,,52.4734839,-8.1614446,True,IE,Ireland
"London, England",,,1,,,,51.4893335,-0.1440551,True,GB,England
"Java, Wyoming, New York, USA",,,1,,,,42.6609691,-78.3886656,True,US,USA
"Fulton, Whiteside, Illinois, USA",,,1,,,,41.8662157,-90.1657833,True,US,USA
"Beverly Hills, Los Angeles, California, USA",,,1,,,,34.0696501,-118.3963062,True,US,USA
"Illinois, USA",,,1,,,,40.0796606,-89.4337288,True,US,USA
"Clarkson, Monroe, New York, USA",,,1,,,,43.233116,-77.927513,True,US,USA
"New York, USA",,,1,,,,40.7127281,-74.0060152,True,US,USA
"Renfrewshire, Scotland",,,1,,,,55.833333,-4.5,True,GB,Scotland
"Queens, New Brunswick, Canada",,,1,,,,45.8838758,-65.9861428,True,CA,Canada
"Argyle, Scotland",,,1,,,,55.9523918,-3.2086898,True,GB,Scotland
"Paisley, Renfrewshire, Scotland",,,1,,,,55.8455828,-4.4239646,True,GB,Scotland
"Surrey, England",,,1,,,,51.2715316,-0.3414524,True,GB,England
"Clyde Twp, Whiteside, Illinois, USA",,,1,,,,41.7612332,-89.9214744,True,US,USA
"Tampico, Whiteside, Illinois, USA",,,1,,,,41.6324811,-89.7850393,True,US,USA
"Epson, Surrey, England",,,1,,,,51.2715316,-0.3414524,True,GB,England
England,,,1,,,,52.5310214,-1.2649062,True,GB,England
"Port Tobacco, Charles, Maryland, USA",,,1,,,,38.5112633,-77.0204083,True,US,USA
"Frederick, Maryland, USA",,,1,,,,39.415779,-77.4127562,True,US,USA
"Charles, Maryland, USA",,,1,,,,38.4991611,-77.027847,True,US,USA
"Loudon, Laurel, Kentucky, USA",,,1,,,,37.1000973,-84.1148273,True,US,USA
"Anchorage, Jefferson, Kentucky, USA",,,1,,,,38.2665993,-85.5330114,True,US,USA
"Galveston, Galveston, Texas, USA",,,1,,,,29.3056996,-94.7933252,True,US,USA
"Jefferson, Kentucky, USA",,,1,,,,38.1787175,-85.664528,True,US,USA
"Owensboro, Daviess, Kentucky, USA",,,1,,,,37.7742152,-87.1133304,True,US,USA
"Russellville, Franklin, Alabama, USA",,,1,,,,34.5042652,-87.7332823,True,US,USA
"Petersburg, Independent Cities, Virginia, USA",,,1,,,,37.1232245,-78.4927721,True,US,USA
"Phoenix, Maricopa, Arizona, USA",,,1,,,,33.4484367,-112.074141,True,US,USA
"Scottsdale, Maricopa, Arizona, USA",,,1,,,,33.4942189,-111.926018,True,US,USA
"Great Barrington, Berkshire, Massachusetts, USA",,,1,,,,42.1939364,-73.362773,True,US,USA
"Pittsfield, Berkshire, Massachusetts, USA",,,1,,,,42.4484778,-73.2541069,True,US,USA
"Orient, Suffolk, New York, USA",,,1,,,,41.1372575,-72.2795773,True,US,USA
"Manhattan, New York, New York, USA",,,1,,,,40.7896239,-73.9598939,True,US,USA
"Galesburg, Knox, Illinois, USA",,,1,,,,40.9475652,-90.3712169,True,US,USA
"Galty, Knockweaddown, Ireland",,,1,,,,52.865196,-7.9794599,True,IE,Ireland
"St Joseph, Andrew, Missouri, USA",,,1,,,,40.115276,-94.8239361,True,US,USA
"St Marys, Elk, Pennsylvania, USA",,,1,,,,41.4280432,-78.5611275,True,US,USA
"Los Angeles, Los Angeles, California, USA",,,1,,,,34.0536909,-118.242766,True,US,USA
"Hempstead, Nassau, New York, USA",,,1,,,,40.6736812,-73.6190736,True,US,USA
"Cape May, New Jersey, USA",,,1,,,,39.1765386,-74.8012119,True,US,USA
"Smith Cemetery, Greene, Pennsylvania, USA",,,1,,,,39.9128529,-80.117838,True,US,USA
"Morgan Twp, Greene, Pennsylvania, USA",,,1,,,,39.956853,-80.0968188,True,US,USA
"Springfield, Columbiana, Ohio, USA",,,1,,,,40.889855,-80.6785145,True,US,USA
"Shrewsbury, Monmouth, New Jersey, USA",,,1,,,,40.3295547,-74.0615285,True,US,USA
"Butlerville, Jennings, Indiana, USA",,,1,,,,39.0344983,-85.5127432,True,US,USA
"Jefferson Twp, Fayette, Pennsylvania, USA",,,1,,,,40.054026,-79.8336541,True,US,USA
"Whittier, Los Angeles, California, USA",,,1,,,,33.9749136,-118.0338664,True,US,USA
"New Jersey, USA",,,1,,,,40.0757384,-74.4041622,True,US,USA
"Burlington, New Jersey, USA",,,1,,,,39.9325409,-74.7226665,True,US,USA
"West Branch, Cedar, Iowa, USA",,,1,,,,41.6720735,-91.3459735,True,US,USA
"Massachusetts, USA",,,1,,,,42.3788774,-72.032366,True,US,USA
"Mahoning, Ohio, USA",,,1,,,,40.9830133,-80.7826416,True,US,USA
"Springfield, Mahoning, Ohio, USA",,,1,,,,40.917222,-80.6058743,True,US,USA
"Baltimore, Maryland, USA",,,1,,,,39.2908816,-76.610759,True,US,USA
"Gunpowder, Harford, Maryland, USA",,,1,,,,39.4374278,-76.3690732,True,US,USA
"Monmouth, New Jersey, USA",,,1,,,,40.2932319,-74.1671114,True,US,USA
"Richland, Bucks, Pennsylvania, USA",,,1,,,,40.4454352,-75.3139227,True,US,USA
"Columbiana, Ohio, USA",,,1,,,,40.7787016,-80.7648602,True,US,USA
"Colerain, Belmont, Ohio, USA",,,1,,,,40.1259045,-80.8086973,True,US,USA
"Elk Twp., Vinton, Ohio, USA",,,1,,,,39.2614972,-82.474952,True,US,USA
"La Habra, Orange, California, USA",,,1,,,,33.9316066,-117.9454867,True,US,USA
"Yorba Linda, Orange, California, USA",,,1,,,,33.8901096,-117.8249705,True,US,USA
"Ely, White Pine, Nevada, USA",,,1,,,,39.2480588,-114.891718,True,US,USA
"West Point, Orange, New York, USA",,,1,,,,41.3926455,-73.9599242,True,US,USA
"Muncie, Delaware, Indiana, USA",,,1,,,,40.1936892,-85.3865271,True,US,USA
"Smith Twp, Washington, Pennsylvania, USA",,,1,,,,40.369102,-80.3668343,True,US,USA
"Mount Pleasant, Vinton, Ohio, USA",,,1,,,,39.3928463,-82.4568223,True,US,USA
"Swan, Vinton, Ohio, USA",,,1,,,,39.3363536,-82.4692571,True,US,USA
"New Plymouth, Vinton, Ohio, USA",,,1,,,,39.3847914,-82.3962649,True,US,USA
"Hocking, Ohio, USA",,,1,,,,39.4644491,-82.5469722,True,US,USA
"Vinton, Ohio, USA",,,1,,,,39.2744355,-82.4740302,True,US,USA
"Washington, Washington, Pennsylvania, USA",,,1,,,,40.17396,-80.2461714,True,US,USA
"Gettysburg, Adams, Pennsylvania, USA",,,1,,,,39.8308973,-77.231012,True,US,USA
"McArthur, Vinton, Ohio, USA",,,1,,,,39.2464596,-82.4784898,True,US,USA
"Harford, Maryland, USA",,,1,,,,39.548545,-76.3048991,True,US,USA
"Morgan, Ohio, USA",,,1,,,,39.5943953,-81.877978,True,US,USA
"Bigger Twp., Jennings, Indiana, USA",,,1,,,,38.9957749,-85.6359201,True,US,USA
"West Pike Run, Washington, Pennsylvania, USA",,,1,,,,40.0767335,-79.9831228,True,US,USA
"Goshen, Mahoning, Ohio, USA",,,1,,,,40.9450585,-80.9703679,True,US,USA
"Middletown, Cape May, New Jersey, USA",,,1,,,,39.271226,-74.7434965,True,US,USA
"Matlock, Derbyshire, England",,,1,,,,53.1374514,-1.5544694,True,GB,England
"Brandywine, New Castle, Delaware, USA",,,1,,,,39.8295563,-75.5343681,True,US,USA
"Delaware, USA",,,1,,,,38.6920451,-75.4013315,True,US,USA
"Fermanagh, Juniata, Pennsylvania, USA",,,1,,,,40.6129018,-77.4112056,True,US,USA
"Maryland, USA",,,1,,,,39.5162401,-76.9382069,True,US,USA
"Washington, Hocking, Ohio, USA",,,1,,,,39.4374403,-82.4543621,True,US,USA
"Centre, Pennsylvania, USA",,,1,,,,40.9381735,-77.7865722,True,US,USA
"Indianola, Warren, Iowa, USA",,,1,,,,41.3604966,-93.5613292,True,US,USA
"Perry, Ohio, USA",,,1,,,,39.6370289,-82.2044367,True,US,USA
"Colona, Henry, Illinois, USA",,,1,,,,41.4754634,-90.3603496,True,US,USA
"Colona Twp., Henry, Illinois, USA",,,1,,,,41.3418549,-90.1177442,True,US,USA
"Washington, Pennsylvania, USA",,,1,,,,40.1943798,-80.2541251,True,US,USA
"Morris, New Jersey, USA",,,1,,,,40.8679538,-74.5601181,True,US,USA
"Lancaster, Pennsylvania, USA",,,1,,,,40.0379958,-76.3056707,True,US,USA
"Salisbury Twp., Lancaster, Pennsylvania, USA",,,1,,,,40.0403575,-75.9937401,True,US,USA
"Ohio, USA",,,1,,,,40.2253569,-82.6881395,True,US,USA
"Belmont, Ohio, USA",,,1,,,,40.0057737,-81.0097516,True,US,USA
"Plumstead, Bucks, Pennsylvania, USA",,,1,,,,40.3862315,-75.1188504,True,US,USA
"Caln, Chester, Pennsylvania, USA",,,1,,,,39.9909398,-75.7802235,True,US,USA
"Warrington Twp., York, Pennsylvania, USA",,,1,,,,40.0656653,-76.9368682,True,US,USA
"Clover Hill, Washington, Pennsylvania, USA",,,1,,,,40.0859059,-79.97894,True,US,USA
"York, Pennsylvania, USA",,,1,,,,39.962493,-76.7276989,True,US,USA
"Pennsylvania, USA",,,1,,,,40.9699889,-77.7278831,True,US,USA
Wales,,,1,,,,52.2928116,-3.73893,True,GB,Wales
"Iowa, USA",,,1,,,,41.9216734,-93.3122705,True,US,USA
"Upper Darby, Delaware, Pennsylvania, USA",,,1,,,,39.9284459,-75.2737955,True,US,USA
"Christana, New Castle, Delaware, USA",,,1,,,,39.6159851,-75.662956,True,US,USA
"Roxbury, Morris, New Jersey, USA",,,1,,,,40.9026666,-74.6850935,True,US,USA
"Balleymoney, Antrim, Northern Ireland",,,1,,,,54.715139,-6.2192038,True,GB,United Kingdom
"Hampshire, West Virginia, USA",,,1,,,,39.3015109,-78.6212207,True,US,USA
"Antrim, Northern Ireland",,,1,,,,54.715139,-6.2192038,True,GB,United Kingdom
"Pikeland, Chester, Pennsylvania, USA",,,1,,,,40.1003815,-75.6115893,True,US,USA
"Coatesville, Chester, Pennsylvania, USA",,,1,,,,39.9831616,-75.8238355,True,US,USA
"New Castle, New Castle, Delaware, USA",,,1,,,,39.6620572,-75.5663132,True,US,USA
"Newberry, York, Pennsylvania, USA",,,1,,,,39.9582298,-76.7335665,True,US,USA
"Framingham, Middlesex, Massachusetts, USA",,,1,,,,42.2773177,-71.4165905,True,US,USA
"Northampton, Burlington, New Jersey, USA",,,1,,,,40.0362901,-74.8571998,True,US,USA
"Evesham, Burlington, New Jersey, USA",,,1,,,,39.851752,-74.8917412,True,US,USA
"Sinking Spring, Hodgenville, Larue, Kentucky, USA",,,1,,,,37.5737487,-85.740353,True,US,USA
"Springfield, Sangamon, Illinois, USA",,,1,,,,39.7990175,-89.6439575,True,US,USA
"Augusta, Virginia, USA",,,1,,,,38.1793809,-79.1525761,True,US,USA
"Farmington, Fulton, Illinois, USA",,,1,,,,40.6980933,-90.0059483,True,US,USA
"Campbell, Kentucky, USA",,,1,,,,38.9339799,-84.3715286,True,US,USA
"Gentryville, Spencer, Indiana, USA",,,1,,,,38.1042183,-87.0330532,True,US,USA
"Berks, Pennsylvania, USA",,,1,,,,40.4113762,-75.9433305,True,US,USA
"Freehold, Monmouth, New Jersey, USA",,,1,,,,40.2601096,-74.2737573,True,US,USA
"Linville, Rockingham, Virginia, USA",,,1,,,,38.521664,-78.8347536,True,US,USA
"Rockingham, Virginia, USA",,,1,,,,38.5080288,-78.8949442,True,US,USA
"Smithtown, Suffolk, New York, USA",,,1,,,,40.8559314,-73.2006687,True,US,USA
"McGaheysville, Rockingham, Virginia, USA",,,1,,,,38.372451,-78.7352814,True,US,USA
"Farnham, Richmond, Virginia, USA",,,1,,,,37.8854129,-76.6249557,True,US,USA
"Woodtown, Nelson, Kentucky, USA",,,1,,,,37.8078463,-85.4741595,True,US,USA
"Howard, Maryland, USA",,,1,,,,39.2305289,-76.9166241,True,US,USA
"Hingham, Plymouth, Massachusetts, USA",,,1,,,,42.2417669,-70.8897676,True,US,USA
"Amity, Berks, Pennsylvania, USA",,,1,,,,40.2679125,-75.7340051,True,US,USA
"Sussex, Delaware, USA",,,1,,,,38.6908097,-75.3691421,True,US,USA
"Chester, Cheshire, England",,,1,,,,53.1908873,-2.8908955,True,GB,England
"Oyster Bay, Nassau, New York, USA",,,1,,,,40.7696568,-73.4998608,True,US,USA
"Richmond, Virginia, USA",,,1,,,,37.5385087,-77.43428,True,US,USA
"Lancaster, Virginia, USA",,,1,,,,37.7625738,-76.4723233,True,US,USA
"Annapolis, Anne Arundel, Maryland, USA",,,1,,,,38.9786401,-76.492786,True,US,USA
"Anne Arundel, Maryland, USA",,,1,,,,38.9722583,-76.573454,True,US,USA
"Scituate, Plymouth, Massachusetts, USA",,,1,,,,42.1924492,-70.7261966,True,US,USA
"Gravesend, Long Island City, Queens, New York, USA",,,1,,,,40.7455316,-73.9484995,True,US,USA
"Kingston Deverill, Wiltshire, England",,,1,,,,51.1276618,-2.2188942,True,GB,England
"Virginia, USA",,,1,,,,37.1232245,-78.4927721,True,US,USA
"Piscataway, Middlesex, New Jersey, USA",,,1,,,,40.5462553,-74.4660408,True,US,USA
"Hingham, Norfolk, England",,,1,,,,52.5796849,0.9845613,True,GB,England
"Hull, Norfolk, Massachusetts, USA",,,1,,,,42.2684008,-70.956672,True,US,USA
"Witchampton, Dorset, England",,,1,,,,50.8579978,-2.0168718,True,GB,England
"Caversham, Oxfordshire, England",,,1,,,,51.4852265,-0.9480417,True,GB,England
"Weymouth, Norfolk, Massachusetts, USA",,,1,,,,42.2212188,-70.9391625,True,US,USA
"Lexington, Fayette, Kentucky, USA",,,1,,,,38.0464066,-84.4970393,True,US,USA
"Arlington, Arlington, Virginia, USA",,,1,,,,38.8809358,-77.1079246,True,US,USA
"Manchester, Bennington, Vermont, USA",,,1,,,,43.176909,-73.0568716,True,US,USA
"New York, New York, New York, USA",,,1,,,,40.7127281,-74.0060152,True,US,USA
"Pope's Creek, Westmoreland, Virginia, USA",,,1,,,,38.1420779,-76.9013489,True,US,USA
"Mount Vernon, Fairfax, Virginia, USA",,,1,,,,38.710179,-77.0888199,True,US,USA
"New Kent, Virginia, USA",,,1,,,,37.4974701,-76.9990453,True,US,USA
"Wakefield, Westmoreland, Virginia, USA",,,1,,,,38.1720754,-76.9491371,True,US,USA
"Ferry Farm, King George, Virginia, USA",,,1,,,,38.2786312,-77.175356,True,US,USA
"Fredericksburg, Spotsylvania, Virginia, USA",,,1,,,,38.2201846,-77.6014545,True,US,USA
"Westmoreland, Virginia, USA",,,1,,,,38.1153203,-76.7567355,True,US,USA
"Warner Hall, Gloucester, Gloucester, Virginia, USA",,,1,,,,37.3396678,-76.4746982,True,US,USA
"Whitehaven, Cumberland, England",,,1,,,,54.5474199,-3.5885335,True,GB,England
"Epping Forest, Lancaster, Virginia, USA",,,1,,,,37.7913044,-76.5258553,True,US,USA
"Cheshire, England",,,1,,,,53.2141028,-2.4717701,True,GB,England
"Purleigh, Essex, England",,,1,,,,51.6724344,0.695894,True,GB,England
"Washington, Westmoreland, Virginia, USA",,,1,,,,38.1918855,-76.9208322,True,US,USA
"York, Virginia, USA",,,1,,,,37.2230374,-76.5156945,True,US,USA
"Warner Hall, Virginia, USA",,,1,,,,37.3396678,-76.4746982,True,US,USA
"Naxera, Gloucester, Virginia, USA",,,1,,,,37.3406965,-76.4471701,True,US,USA
"Gloucester, Gloucester, Virginia, USA",,,1,,,,37.4148403,-76.529435,True,US,USA
"Millenbeck, Lancashire, England",,,1,,,,53.8611712,-2.5650945,True,GB,England
"Sulgrave, Northamptonshire, England",,,1,,,,52.1061958,-1.1915121,True,GB,England
"Maldon, Essex, England",,,1,,,,51.731198,0.6791849,True,GB,England
"Spratton, Northamptonshire, England",,,1,,,,52.3242384,-0.9496885,True,GB,England
"Tring, Hertfordshire, England",,,1,,,,51.7940357,-0.6609205,True,GB,England
"Gloucestershire, England",,,1,,,,51.7643786,-2.1880662,True,GB,England
"Norfolk, England",,,1,,,,52.666667,1.0,True,GB,England
"Stone Edge, Lancashire, England",,,1,,,,53.8633908,-2.2075841,True,GB,England
"Linkenholt, Hampshire, England",,,1,,,,51.3198054,-1.4762773,True,GB,England
"Yorktown, York, Virginia, USA",,,1,,,,37.2356655,-76.5136495,True,US,USA
"Brington, Northamptonshire, England",,,1,,,,52.2791465,-1.0251429,True,GB,England
"Tyes Hall, Cuckfield, Sussex, England",,,1,,,,51.0055129,-0.1393153,True,GB,England
"Little Creaton, Northamptonshire, England",,,1,,,,52.3378983,-0.9506195,True,GB,England
"Colne, Lancashire, England",,,1,,,,53.8567728,-2.1691238,True,GB,England
"Burnley, Lancashire, England",,,1,,,,53.7907262,-2.2439196,True,GB,England
"Saint-Martin-de-Ré, Departement de la Charente-Maritime, Poitou-Charentes, France",,,1,,,,45.7447048,-0.6552529,True,FR,France
"Nether Boddingto, Northamptonshire, England",,,1,,,,52.3106138,-0.865913,True,GB,England
"Radway Grange, Warwickshire, England",,,1,,,,52.3213064,-1.5536906,True,GB,England
"Blakesley, Northamptonshire, England",,,1,,,,52.1467426,-1.0877657,True,GB,England
"Great Creaton, Northamptonshire, England",,,1,,,,52.3414301,-0.9628308,True,GB,England
"Barnside, Lancashire, England",,,1,,,,53.6688447,-2.6790876,True,GB,England
"Faccombe, Hampshire, England",,,1,,,,51.3171692,-1.4425384,True,GB,England
"St Martin, Westminster, London, England",,,1,,,,51.5088275,-0.1266769,True,GB,England
"Scrivelsby, Lincolnshire, England",,,1,,,,53.1780161,-0.1023101,True,GB,England
"Williamsburg, Independent Cities, Virginia, USA",,,1,,,,37.1232245,-78.4927721,True,US,USA
"New Kent, New Kent, Virginia, USA",,,1,,,,37.511702,-76.9864946,True,US,USA
"Eltham, New Kent, Virginia, USA",,,1,,,,37.5237559,-76.8260735,True,US,USA
"Althorpe, Northamptonshire, England",,,1,,,,52.4035844,-0.7080124,True,GB,England
"Picadilliy, Middlesex, England",,,1,,,,51.5460558,-0.2537791,True,GB,England
"Ashe, Musbury, Devon, England",,,1,,,,50.7577146,-3.0248222,True,GB,England
"Blenheim, Oxfordshire, England",,,1,,,,51.8467429,-1.3765989,True,GB,England
"Milton, Norfolk, Massachusetts, USA",,,1,,,,42.2501425,-71.065573,True,US,USA
"College Station, Brazos, Texas, USA",,,1,,,,30.6183939,-96.3455991,True,US,USA
"Houston, Harris, Texas, USA",,,1,,,,29.7589382,-95.3676974,True,US,USA
"Rye, Westchester, New York, USA",,,1,,,,40.9821371,-73.6840902,True,US,USA
"Bristol, Rhode Island, USA",,,1,,,,41.6770463,-71.2661597,True,US,USA
"Bristol, Bristol, Rhode Island, USA",,,1,,,,41.6770463,-71.2661597,True,US,USA
"Springport, Cayuga, New York, USA",,,1,,,,42.853434,-76.6787565,True,US,USA
"Lebanon, New London, Connecticut, USA",,,1,,,,41.5703205,-72.1327453,True,US,USA
"Penfield, Monroe, New York, USA",,,1,,,,43.1301133,-77.4759588,True,US,USA
"Rochester, Monroe, New York, USA",,,1,,,,43.157285,-77.615214,True,US,USA
"Cambridge, Washington, New York, USA",,,1,,,,43.007994,-73.4392637,True,US,USA
"Cincinnati, Hamilton, Ohio, USA",,,1,,,,39.1014537,-84.5124602,True,US,USA
"Ithaca, Tompkins, New York, USA",,,1,,,,42.4374175,-76.5483724,True,US,USA
"Savannah, Chatham, Georgia, USA",,,1,,,,32.0790074,-81.0921335,True,US,USA
"Boston, Middlesex, Massachusetts, USA",,,1,,,,42.3504215,-71.1032247,True,US,USA
"Brick Church, East Orange, Essex, New Jersey, USA",,,1,,,,40.7654209,-74.2189954,True,US,USA
"Columbus, Franklin, Ohio, USA",,,1,,,,39.9622601,-83.0007065,True,US,USA
"Franklin, Ohio, USA",,,1,,,,39.5589474,-84.3041074,True,US,USA
"Watch Hill, Rhode Island, USA",,,1,,,,41.3142611,-71.849017,True,US,USA
"New York, New York, USA",,,1,,,,40.7127281,-74.0060152,True,US,USA
"Walker's Pt, York, Maine, USA",,,1,,,,43.3424285,-70.4597517,True,US,USA
"Roth, Down, Northern Ireland",,,1,,,,54.3518644,-5.9616165,True,GB,United Kingdom
"Rathfriland, Down, Northern Ireland",,,1,,,,54.2210443,-6.2748699,True,GB,United Kingdom
"Monroe, Missouri, USA",,,1,,,,39.494421,-91.9896892,True,US,USA
"Pike, Missouri, USA",,,1,,,,39.3683251,-91.1825617,True,US,USA
"St Louis, Missouri, USA",,,1,,,,38.6280278,-90.1910154,True,US,USA
"Hannibal, Marion, Missouri, USA",,,1,,,,39.7082498,-91.3587413,True,US,USA
"Culpeper, Virginia, USA",,,1,,,,38.4912207,-77.9618216,True,US,USA
"Indian Territory, USA",,,1,,,,40.8723802,-72.431364,True,US,USA
"Philadelphia, Pennsylvania, USA",,,1,,,,39.9527237,-75.1635262,True,US,USA
"Norwalk, Fairfield, Connecticut, USA",,,1,,,,41.2170934,-73.4255216,True,US,USA
"Ridgefield, Fairfield, Connecticut, USA",,,1,,,,41.2814842,-73.4981792,True,US,USA
"Ridgebury, Fairfield, Connecticut, USA",,,1,,,,41.3392118,-73.5122771,True,US,USA
"Connecticut, USA",,,1,,,,41.6500201,-72.7342163,True,US,USA
"Grand River, Ontario, Canada",,,1,,,,43.3670861,-80.3184977,True,CA,Canada
"Barnstable, Massachusetts, USA",,,1,,,,41.7016936,-70.3036163,True,US,USA
"Harwich, Barnstable, Massachusetts, USA",,,1,,,,41.6862224,-70.0758508,True,US,USA
"Oblong, New York, USA",,,1,,,,41.5846415,-73.5434695,True,US,USA
"Portage, Livingston, New York, USA",,,1,,,,42.5604851,-77.9955006,True,US,USA
"Stratford, Fairfield, Connecticut, USA",,,1,,,,41.1412078,-73.2637258,True,US,USA
"Cecil, Maryland, USA",,,1,,,,39.5729428,-75.9381806,True,US,USA
"Earleville, Cecil, Maryland, USA",,,1,,,,39.4153912,-75.9174417,True,US,USA
"Kennebunk, York, Maine, USA",,,1,,,,43.384092,-70.545273,True,US,USA
"Biddeford, York, Maine, USA",,,1,,,,43.4925843,-70.4533844,True,US,USA
"Tiffin, Defiance, Ohio, USA",,,1,,,,41.383501,-84.5158853,True,US,USA
"St. Stephen's, Cecil, Maryland, USA",,,1,,,,39.4254064,-75.9176859,True,US,USA
"Bloomington, Monroe, Indiana, USA",,,1,,,,39.1670396,-86.5342881,True,US,USA
"Rehoboth, Bristol, Massachusetts, USA",,,1,,,,41.8403786,-71.2494938,True,US,USA
"Swansea, Bristol, Massachusetts, USA",,,1,,,,41.7481575,-71.1897684,True,US,USA
"Poughkeepsie, Dutchess, New York, USA",,,1,,,,41.7065539,-73.9283672,True,US,USA
"Edgartown, Dukes, Massachusetts, USA",,,1,,,,41.3894198,-70.5129682,True,US,USA
"Pleasant Valley, Dutchess, New York, USA",,,1,,,,41.7583875,-73.802016,True,US,USA
"Little Compton, Newport, Rhode Island, USA",,,1,,,,41.5101085,-71.1711648,True,US,USA
"Lebanon, Grafton, New Hampshire, USA",,,1,,,,43.643032,-72.251587,True,US,USA
"Saratoga, New York, USA",,,1,,,,43.0833231,-73.8712155,True,US,USA
"Esopus, Ulster, New York, USA",,,1,,,,41.8278036,-73.965047,True,US,USA
"Rome, Oneida, New York, USA",,,1,,,,43.2102196,-75.4583956,True,US,USA
"Easton, Bristol, Massachusetts, USA",,,1,,,,42.0245442,-71.1286594,True,US,USA
"Coventry, Tolland, Connecticut, USA",,,1,,,,41.7700987,-72.3050803,True,US,USA
"Springfield, Otsego, New York, USA",,,1,,,,42.8361841,-74.8534838,True,US,USA
"Wrentham, Norfolk, Massachusetts, USA",,,1,,,,42.0667652,-71.3281114,True,US,USA
"Cumberland, Providence, Rhode Island, USA",,,1,,,,41.9667656,-71.4328363,True,US,USA
"Tisbury, Dukes, Massachusetts, USA",,,1,,,,41.4576223,-70.6156969,True,US,USA
"Middletown Springs, Rutland, Vermont, USA",,,1,,,,43.4853063,-73.1182549,True,US,USA
"Bennington, Vermont, USA",,,1,,,,42.8788667,-73.1968205,True,US,USA
"Clinton, New York, USA",,,1,,,,40.7652778,-73.993889,True,US,USA
"Lomersheim, Enzkreis, Baden-Württemberg, Germany",,,1,,,,48.9326355,8.8668632,True,DE,Germany
"Andover, Essex, Massachusetts, USA",,,1,,,,42.65717,-71.1408776,True,US,USA
"Boston, Suffolk, Massachusetts, USA",,,1,,,,42.3554334,-71.060511,True,US,USA
"Bedford, Hillsborough, New Hampshire, USA",,,1,,,,42.9464737,-71.5159015,True,US,USA
"Manchester, Hillsborough, New Hampshire, USA",,,1,,,,42.9956397,-71.4547891,True,US,USA
"Nashua, Hillsborough, New Hampshire, USA",,,1,,,,42.7656251,-71.4677032,True,US,USA
"Lynn, Essex, Massachusetts, USA",,,1,,,,42.466763,-70.9494939,True,US,USA
"Bradford, Essex, Massachusetts, USA",,,1,,,,42.7652102,-71.0760878,True,US,USA
"Cambridge, Middlesex, Massachusetts, USA",,,1,,,,42.3656347,-71.1040018,True,US,USA
"Sudbury, Middlesex, Massachusetts, USA",,,1,,,,42.3834278,-71.4161725,True,US,USA
"Concord, Middlesex, Massachusetts, USA",,,1,,,,42.4605189,-71.3488963,True,US,USA
"Stoneham, Middlesex, Massachusetts, USA",,,1,,,,42.4802635,-71.0993581,True,US,USA
"Westborough, Worcester, Massachusetts, USA",,,1,,,,42.2694308,-71.6129907,True,US,USA
"Brooklyn, Kings, New York, USA",,,1,,,,40.6526006,-73.9497211,True,US,USA
"Ipswich, Essex, Massachusetts, USA",,,1,,,,42.679273,-70.8411583,True,US,USA
"Stonington, New London, Connecticut, USA",,,1,,,,41.5187226,-72.0519409,True,US,USA
"Pottstown, Montgomery, Pennsylvania, USA",,,1,,,,40.2452976,-75.6496424,True,US,USA
"Watertown, Middlesex, Massachusetts, USA",,,1,,,,42.3652518,-71.1843236,True,US,USA
"Preston City, New London, Connecticut, USA",,,1,,,,41.5296768,-71.9848643,True,US,USA
"Scipio, Cayuga, New York, USA",,,1,,,,42.7948111,-76.5614129,True,US,USA
"Pottstown, Chester, Pennsylvania, USA",,,1,,,,40.2365695,-75.6595827,True,US,USA
"Hadley, Hampshire, Massachusetts, USA",,,1,,,,42.3423259,-72.5891221,True,US,USA
"Wethersfield, Hartford, Connecticut, USA",,,1,,,,41.7142665,-72.6525922,True,US,USA
"Roxbury, Suffolk, Massachusetts, USA",,,1,,,,42.3289067,-71.0850853,True,US,USA
"Hebron, Tolland, Connecticut, USA",,,1,,,,41.7501575,-72.4282654,True,US,USA
"Kittery, York, Maine, USA",,,1,,,,43.088448,-70.736847,True,US,USA
"Killingworth, Middlesex, Connecticut, USA",,,1,,,,41.3581545,-72.5637023,True,US,USA
"Andover, Tolland, Connecticut, USA",,,1,,,,41.7373212,-72.37036,True,US,USA
"Dorchester, Suffolk, Massachusetts, USA",,,1,,,,42.301376,-71.0612744,True,US,USA
"Albemarle, Virginia, USA",,,1,,,,38.0085107,-78.6086754,True,US,USA
"Glasgow, Barren, Kentucky, USA",,,1,,,,36.995906,-85.9124842,True,US,USA
"Otterville, Cooper, Missouri, USA",,,1,,,,38.6997409,-93.0021426,True,US,USA
"Blount, Tennessee, USA",,,1,,,,35.6719722,-83.9314465,True,US,USA
"Maryville, Blount, Tennessee, USA",,,1,,,,35.7564719,-83.9704593,True,US,USA
"Greenfield, Dade, Missouri, USA",,,1,,,,37.4153244,-93.8410449,True,US,USA
"Dade, Missouri, USA",,,1,,,,37.4323036,-93.8406302,True,US,USA
"Cooper, Missouri, USA",,,1,,,,38.8452595,-92.8249579,True,US,USA
"Emmitsburg, Frederick, Maryland, USA",,,1,,,,39.7045417,-77.3269307,True,US,USA
Germany,,,1,,,,51.1638175,10.4478313,True,DE,Germany
"Fredericktown, Cecil, Maryland, USA",,,1,,,,39.3662232,-75.8838284,True,US,USA
"Bloomington, McLean, Illinois, USA",,,1,,,,40.4797828,-88.9939147,True,US,USA
"Providence, Rhode Island, USA",,,1,,,,41.8239891,-71.4128343,True,US,USA
"Bradford, Devon, England",,,1,,,,50.8309593,-4.2412484,True,GB,England
"Charlestown, Suffolk, Massachusetts, USA",,,1,,,,42.3778749,-71.0619957,True,US,USA
"Wigtownshire, Scotland",,,1,,,,54.9036896,-5.02225,True,GB,Scotland
"Kirkcudbright, Kirkcudbrightshire, Scotland",,,1,,,,54.9044714,-4.0213174,True,GB,Scotland
"Stallingborough, Lincolnshire, England",,,1,,,,53.5871667,-0.1834359,True,GB,England
"Stepney, London, England",,,1,,,,51.5174023,-0.0462189,True,GB,England
"Odell, Bedfordshire, England",,,1,,,,52.0307897,-0.3304262,True,GB,England
"Kilsyth, Stirlingshire, Scotland",,,1,,,,56.0701208,-3.9087351,True,GB,Scotland
"Rotterdam, Zuid-Holland, Netherlands",,,1,,,,51.9244424,4.47775,True,NL,Netherlands
"St Helens, Lancashire, England",,,1,,,,53.7396851,-2.3808275,True,GB,England
"New Haven, New Haven, Connecticut, USA",,,1,,,,41.2976052,-72.9265437,True,US,USA
"Bolton, Worcester, Massachusetts, USA",,,1,,,,42.4342336,-71.6097744,True,US,USA
"Plymouth, Windsor, Vermont, USA",,,1,,,,43.5355839,-72.7217781,True,US,USA
"Marlborough, Middlesex, Massachusetts, USA",,,1,,,,42.3468589,-71.5525188,True,US,USA
"Chester, Windsor, Vermont, USA",,,1,,,,43.2629706,-72.5945649,True,US,USA
"Ludlow, Windsor, Vermont, USA",,,1,,,,43.3961459,-72.7011648,True,US,USA
"Bergery, Bedfordshire, England",,,1,,,,52.0640034,-0.4111138,True,GB,England
"Wold, Northamptonshire, England",,,1,,,,52.3640118,-0.6459677,True,GB,England
"Badby, Northamptonshire, England",,,1,,,,52.2261761,-1.1814946,True,GB,England
"Wormleighton, Stratford on Avon, Warwickshire, England",,,1,,,,52.1790224,-1.3451912,True,GB,England
"Daventry District, Northamptonshire, England",,,1,,,,52.2638831,-1.1404808,True,GB,England
"Althorpe, Lincolnshire, England",,,1,,,,53.5855457,-0.732955,True,GB,England
"Fawsley, Northamptonshire, England",,,1,,,,52.2049813,-1.1818514,True,GB,England
"Everdon, Northamptonshire, England",,,1,,,,52.2108771,-1.1430057,True,GB,England
"Northamptonshire, England",,,1,,,,52.3106138,-0.865913,True,GB,England
"Farmington, Franklin, Maine, USA",,,1,,,,44.671094,-70.151825,True,US,USA
"Stoke By Nayland, Suffolk, England",,,1,,,,51.9892706,0.8966564,True,GB,England
"Fen Stanton, Huntingdonshire, England",,,1,,,,52.371044,-0.2235779,True,GB,England
"Plymouth, Plymouth, Massachusetts, USA",,,1,,,,41.9583799,-70.6673851,True,US,USA
"Hartford, Connecticut, USA",,,1,,,,41.764582,-72.6908547,True,US,USA
"Dedham, Norfolk, Massachusetts, USA",,,1,,,,42.2489143,-71.1755732,True,US,USA
"Bridgewater, Plymouth, Massachusetts, USA",,,1,,,,41.9902206,-70.9754432,True,US,USA
Netherlands,,,1,,,,52.2434979,5.6343227,True,NL,Netherlands
"Berkeley, Charles City, Virginia, USA",,,1,,,,37.3183245,-77.1793543,True,US,USA
"North Bend, Hamilton, Ohio, USA",,,1,,,,39.1525576,-84.7480038,True,US,USA
"White House, Washington, District of Columbia, USA",,,1,,,,38.8976997,-77.0365532,True,US,USA
"Crown Hill Cemetery, Indianapolis, Marion, Indiana, USA",,,1,,,,39.8187989,-86.1709159,True,US,USA
"Indianapolis, Marion, Indiana, USA",,,1,,,,39.7683331,-86.1583502,True,US,USA
"Flatbrookville, Sussex, New Jersey, USA",,,1,,,,41.1003736,-74.9635055,True,US,USA
"Vincennes, Knox, Indiana, USA",,,1,,,,38.6772691,-87.5286325,True,US,USA
"Francisville, Boone, Kentucky, USA",,,1,,,,39.1050586,-84.7243917,True,US,USA
"Boone, Kentucky, USA",,,1,,,,38.9589235,-84.7160121,True,US,USA
"Richmond, Richmond, Virginia, USA",,,1,,,,37.5922778,-77.4193382,True,US,USA
"Morristown, Middlesex, New Jersey, USA",,,1,,,,40.4279992,-74.2560893,True,US,USA
"Mercersburg, Franklin, Pennsylvania, USA",,,1,,,,39.8282214,-77.9037226,True,US,USA
"Oxford, Butler, Ohio, USA",,,1,,,,39.5103048,-84.7420519,True,US,USA
"Greenwich, Fairfield, Connecticut, USA",,,1,,,,41.098817,-73.7214019,True,US,USA
"Honesdale, Wayne, Pennsylvania, USA",,,1,,,,41.5771005,-75.2580212,True,US,USA
"Locust Valley, Nassau, New York, USA",,,1,,,,40.8775225,-73.5723052,True,US,USA
"Madison, Indiana, USA",,,1,,,,40.1624531,-85.7260804,True,US,USA
"Helena, Lewis and Clark, Montana, USA",,,1,,,,46.5927425,-112.036277,True,US,USA
"Minneapolis, Hennepin, Minnesota, USA",,,1,,,,44.9772995,-93.2654692,True,US,USA
"Raleigh, Wake, North Carolina, USA",,,1,,,,35.7803977,-78.6390989,True,US,USA
"Greeneville, Greene, Tennessee, USA",,,1,,,,36.1631575,-82.8309861,True,US,USA
"Greene, Tennessee, USA",,,1,,,,36.1698443,-82.8766356,True,US,USA
"Telford, Washington, Tennessee, USA",,,1,,,,36.2489943,-82.5451479,True,US,USA
"Nashville, Davidson, Tennessee, USA",,,1,,,,36.1622767,-86.7742984,True,US,USA
"Bluff City, Sullivan, Tennessee, USA",,,1,,,,36.4742705,-82.2609685,True,US,USA
"Elizabethton, Carter, Tennessee, USA",,,1,,,,36.3487756,-82.2107617,True,US,USA
"Cedar Creek, Greene, Tennessee, USA",,,1,,,,36.0239908,-82.9023711,True,US,USA
"Afton, Greene, Tennessee, USA",,,1,,,,36.1939922,-82.738763,True,US,USA
"Madison, North Carolina, USA",,,1,,,,35.8482034,-82.6931063,True,US,USA
"Beaufort, North Carolina, USA",,,1,,,,35.469331,-76.8927522,True,US,USA
"West Columbia, Brazoria, Texas, USA",,,1,,,,29.1438582,-95.6452249,True,US,USA
"Brazoria, Brazoria, Texas, USA",,,1,,,,29.0444147,-95.5691126,True,US,USA
"Queens, New York, USA",,,1,,,,40.7135078,-73.8283132,True,US,USA
"Chestnut Hill, Boston, Middlesex, Massachusetts, USA",,,1,,,,42.3336727,-71.1624971,True,US,USA
"Brookline, Norfolk, Massachusetts, USA",,,1,,,,42.332918,-71.1187829,True,US,USA
"Aiken, South Carolina, USA",,,1,,,,33.5723191,-81.6182086,True,US,USA
"Norwich, New London, Connecticut, USA",,,1,,,,41.5243537,-72.0759008,True,US,USA
"Nord, Nord-Pas-de-Calais, France",,,1,,,,50.4442902,3.0325699,True,FR,France
"Alaska, USA",,,1,,,,64.4459613,-149.680909,True,US,USA
"Palm Springs, Palm Beach, Florida, USA",,,1,,,,26.6359009,-80.0961538,True,US,USA
"Cambrai, Nord, Nord-Pas-de-Calais, France",,,1,,,,50.2475915,3.1555757,True,FR,France
"Manhattan, Kings, New York, USA",,,1,,,,40.7029052,-73.990118,True,US,USA
"Brattleboro, Windham, Vermont, USA",,,1,,,,42.8507588,-72.5572913,True,US,USA
"Cold Spring Harbor, Suffolk, New York, USA",,,1,,,,40.8601065,-73.4529025,True,US,USA
"Hartford, Hartford, Connecticut, USA",,,1,,,,41.764582,-72.6908547,True,US,USA
"Farmington, Hartford, Connecticut, USA",,,1,,,,41.7198216,-72.8320435,True,US,USA
"Tivoli, Dutchess, New York, USA",,,1,,,,42.058528,-73.908913,True,US,USA
"Columbia, Herkimer, New York, USA",,,1,,,,42.9277366,-75.0427129,True,US,USA
"Denison, Grayson, Texas, USA",,,1,,,,33.7556593,-96.536658,True,US,USA
"Abilene, Dickinson, Kansas, USA",,,1,,,,38.917252,-97.21377,True,US,USA
"Boone, Iowa, USA",,,1,,,,42.0171798,-93.9254114,True,US,USA
"San Antonio, Bexar, Texas, USA",,,1,,,,29.4246002,-98.4951405,True,US,USA
"Fort Meade, Anne Arundel, Maryland, USA",,,1,,,,39.1031979,-76.7465173,True,US,USA
"Denver, Colorado, USA",,,1,,,,39.7392364,-104.984862,True,US,USA
"Trappe, Talbot, Maryland, USA",,,1,,,,38.6584506,-76.0579956,True,US,USA
"Fort Knox, Hardin, Kentucky, USA",,,1,,,,37.8976552,-85.9038521,True,US,USA
"Dallas, Dallas, Texas, USA",,,1,,,,32.7762719,-96.7968559,True,US,USA
"Southampton, Suffolk, New York, USA",,,1,,,,40.8842482,-72.3897131,True,US,USA
"Falmouth, Cumberland, Maine, USA",,,1,,,,43.729525,-70.241993,True,US,USA
"Otis AF Base, Falmouth, Barnstable, Massachusetts, USA",,,1,,,,41.5514979,-70.6147519,True,US,USA
"Eastchester Town, Westchester, New York, USA",,,1,,,,40.9610563,-73.8064739,True,US,USA
"Hyannis Port, Barnstable, Massachusetts, USA",,,1,,,,41.6334445,-70.2983549,True,US,USA
"Bronxville, Westchester, New York, USA",,,1,,,,40.9381544,-73.8320784,True,US,USA
"Hull, Plymouth, Massachusetts, USA",,,1,,,,42.3020436,-70.9078243,True,US,USA
"Suffolk, England",,,1,,,,52.2410014,1.0465716,True,GB,England
"Chatsworth house, Derbyshire, England",,,1,,,,53.2275873,-1.6113902,True,GB,England
"Ardèche, Rhône-Alpes, France",,,1,,,,44.815194,4.3986525,True,FR,France
"Centerville, Barnstable, Massachusetts, USA",,,1,,,,41.6499298,-70.3485753,True,US,USA
"Arlington Cemetery, Arlington, Virginia, USA",,,1,,,,38.8846187,-77.0630855,True,US,USA
"Boston, Suffolk, New York, USA",,,1,,,,40.8146879,-72.9965503,True,US,USA
"Westminster, Carroll, Maryland, USA",,,1,,,,39.5751717,-76.9959168,True,US,USA
"Bethesda, Montgomery, Maryland, USA",,,1,,,,38.9812725,-77.1233587,True,US,USA
"Riverdale, New York, USA",,,1,,,,40.90056,-73.90639,True,US,USA
"Palm Beach, Palm Beach, Florida, USA",,,1,,,,26.7056172,-80.0361517,True,US,USA
"Omaha, Douglas, Nebraska, USA",,,1,,,,41.2587459,-95.9383758,True,US,USA
"Grand Rapids, Kent, Michigan, USA",,,1,,,,42.9632425,-85.6678639,True,US,USA
"Rancho Mirage, Riverside, California, USA",,,1,,,,33.7583005,-116.4347271,True,US,USA
"Glendale, Los Angeles, California, USA",,,1,,,,34.1469416,-118.2478471,True,US,USA
"Tucson, Pima, Arizona, USA",,,1,,,,32.2228765,-110.974847,True,US,USA
"Harvard, McHenry, Illinois, USA",,,1,,,,42.422241,-88.6137101,True,US,USA
"Plains, Sumter, Georgia, USA",,,1,,,,32.0340872,-84.3926633,True,US,USA
"Greenway, Charles City, Virginia, USA",,,1,,,,37.340981,-77.0816368,True,US,USA
"Cedar Grove, New Kent, Virginia, USA",,,1,,,,37.4857339,-77.1165521,True,US,USA
"Cedar Grove Plantation, Clarksville, Mecklenburg, Virginia, USA",,,1,,,,36.6240321,-78.5569437,True,US,USA
"Charles City, Virginia, USA",,,1,,,,37.3705777,-77.0605098,True,US,USA
"Roxbury, New Kent, Virginia, USA",,,1,,,,37.5233762,-77.1440108,True,US,USA
"Montgomery, Montgomery, Alabama, USA",,,1,,,,32.37742,-86.3091683,True,US,USA
"Charles City, Charles City, Virginia, USA",,,1,,,,37.342801,-77.0664642,True,US,USA
"Providence Forge, New Kent, Virginia, USA",,,1,,,,37.4424264,-77.0439583,True,US,USA
"Williamsburg, Williamsburg, Independent Cities, Virginia, USA",,,1,,,,37.1232245,-78.4927721,True,US,USA
"Baltimore, Independent Cities, Maryland, USA",,,1,,,,39.5162401,-76.9382069,True,US,USA
"Louisville, Jefferson, Kentucky, USA",,,1,,,,38.2542376,-85.759407,True,US,USA
"Tazewell, Virginia, USA",,,1,,,,37.1236041,-81.5684129,True,US,USA
"Colma, San Mateo, California, USA",,,1,,,,37.6766821,-122.459603,True,US,USA
"San Francisco, San Francisco, California, USA",,,1,,,,37.776547,-122.3948371,True,US,USA
"Gardiners Island, Suffolk, New York, USA",,,1,,,,41.0841161,-72.0942469,True,US,USA
"Richmond, Independent Cities, Virginia, USA",,,1,,,,37.1232245,-78.4927721,True,US,USA
"East Hampton, Suffolk, New York, USA",,,1,,,,40.9633868,-72.1847598,True,US,USA
"Sherwood Forest, Charles City, Virginia, USA",,,1,,,,37.3340365,-77.019968,True,US,USA
"New Mexico, USA",,,1,,,,34.5802074,-105.996047,True,US,USA
"Sherwood Forest, Virginia, USA",,,1,,,,37.2426378,-79.942815,True,US,USA
"Elliston, Montgomery, Virginia, USA",,,1,,,,37.2152145,-80.2300592,True,US,USA
"James City County, Virginia, USA",,,1,,,,37.3211485,-76.7972515,True,US,USA
"Wyoming, Pennsylvania, USA",,,1,,,,41.5179097,-76.019111,True,US,USA
"Charlottesville, Albemarle, Virginia, USA",,,1,,,,38.1410056,-78.450458,True,US,USA
"Caldwell, Essex, New Jersey, USA",,,1,,,,40.8398218,-74.2765366,True,US,USA
"Princeton, Mercer, New Jersey, USA",,,1,,,,40.3496953,-74.6597376,True,US,USA
"Buffalo, Erie, New York, USA",,,1,,,,42.8867166,-78.8783922,True,US,USA
"Tamworth, Carroll, New Hampshire, USA",,,1,,,,43.860277,-71.263504,True,US,USA
"New Hampshire, USA",,,1,,,,43.4849133,-71.6553992,True,US,USA
"Buzzards Bay, Barnstable, Massachusetts, USA",,,1,,,,41.7452589,-70.6154965,True,US,USA
"Redcar, Yorkshire, England",,,1,,,,54.6179021,-1.0687914,True,GB,England
"Exeter, Rockingham, New Hampshire, USA",,,1,,,,42.981477,-70.9478343,True,US,USA
"Lamar, Barton, Missouri, USA",,,1,,,,37.4950527,-94.2768736,True,US,USA
"Independence, Jackson, Missouri, USA",,,1,,,,39.0924792,-94.4137923,True,US,USA
"Kansas City, Jackson, Missouri, USA",,,1,,,,39.100105,-94.5781416,True,US,USA
"Zebulon, Wake, North Carolina, USA",,,1,,,,35.8212013,-78.3126798,True,US,USA
"Jackson, Missouri, USA",,,1,,,,39.0355211,-94.3583509,True,US,USA
"Grandview, Jackson, Missouri, USA",,,1,,,,38.8898478,-94.5313816,True,US,USA
"Lamar Heights, Barton, Missouri, USA",,,1,,,,37.493659,-94.2977265,True,US,USA
"Hyde Park, Dutchess, New York, USA",,,1,,,,41.7841956,-73.9373912,True,US,USA
"Warm Springs, Meriwether, Georgia, USA",,,1,,,,32.8904081,-84.6810381,True,US,USA
"Bronx, Bronx, New York, USA",,,1,,,,40.8466508,-73.8785937,True,US,USA
"Corona Del Mar, Orange, California, USA",,,1,,,,33.5995916,-117.873739,True,US,USA
"Newport Beach, Orange, California, USA",,,1,,,,33.6170092,-117.9294401,True,US,USA
"Campobello, Charlotte, New Brunswick, Canada",,,1,,,,44.8938472,-66.9193702,True,CA,Canada
"Birkenhead, Cheshire, England",,,1,,,,53.2595002,-2.4896283,True,GB,England
"Pittsburgh, Allegheny, Pennsylvania, USA",,,1,,,,40.4416941,-79.9900861,True,US,USA
"Elizabeth, Allen, Louisiana, USA",,,1,,,,30.868526,-92.7929262,True,US,USA
"Majorca, Balearic Islands, Spain",,,1,,,,39.613432,2.8829185,True,ES,Spain
"Wilmington, New Castle, Delaware, USA",,,1,,,,39.7459468,-75.546589,True,US,USA
"Grosse Pointe, Wayne, Michigan, USA",,,1,,,,42.3861485,-82.9118591,True,US,USA
"Mexico City, Distrito Federal, Mexico",,,1,,,,19.4326296,-99.1331785,True,MX,Mexico
"Waterloo, Black Hawk, Iowa, USA",,,1,,,,42.498275,-92.3328743,True,US,USA
"Waldorf Astoria, New York, New York, New York, USA",,,1,,,,40.756502,-73.9733616,True,US,USA
"London, London, England",,,1,,,,51.4893335,-0.1440551,True,GB,England
"Altadena, Los Angeles, California, USA",,,1,,,,34.1928193,-118.1374663,True,US,USA
"Pasadena, Los Angeles, California, USA",,,1,,,,34.1476507,-118.144155,True,US,USA
"Portola Valley, San Mateo, California, USA",,,1,,,,37.3736298,-122.219047,True,US,USA
"Staunton, Augusta, Virginia, USA",,,1,,,,38.1242486,-79.0633967,True,US,USA
"Washington Cath, Washington, District of Columbia, USA",,,1,,,,38.8950368,-77.0365427,True,US,USA
"Rome, Floyd, Georgia, USA",,,1,,,,34.257038,-85.1646726,True,US,USA
"Gainesville, Hall, Georgia, USA",,,1,,,,34.2978794,-83.8240663,True,US,USA
"Pondicherry, India",,,1,,,,10.9156489,79.8069488,True,IN,India
"Middletown, Middlesex, Connecticut, USA",,,1,,,,41.5171937,-72.6382761,True,US,USA
"Montecito, Santa Barbara, California, USA",,,1,,,,34.4366626,-119.6320753,True,US,USA
"South Bethlehem, Armstrong, Pennsylvania, USA",,,1,,,,40.9995097,-79.3408743,True,US,USA
"Marietta, Cobb, Georgia, USA",,,1,,,,33.9528472,-84.5496148,True,US,USA
"Northampton, Hampshire, Massachusetts, USA",,,1,,,,42.3178989,-72.6311006,True,US,USA
"Burlington, Chittenden, Vermont, USA",,,1,,,,44.4761601,-73.212906,True,US,USA
"Plainville, Hartford, Connecticut, USA",,,1,,,,41.764582,-72.6908547,True,US,USA
"Mecklenburg, North Carolina, USA",,,1,,,,35.2356385,-80.8139485,True,US,USA
"Murfreesboro, Rutherford, Tennessee, USA",,,1,,,,35.8460396,-86.3921096,True,US,USA
"Montebello, Nelson, Virginia, USA",,,1,,,,37.8525306,-79.1316813,True,US,USA
"Calvert, Maryland, USA",,,1,,,,38.5288529,-76.537764,True,US,USA
"Pascagoula, Jackson, Mississippi, USA",,,1,,,,30.3646795,-88.5585995,True,US,USA
"Lockport, Niagara, New York, USA",,,1,,,,43.1687104,-78.696567,True,US,USA
"Freiburg, Baden-Württemberg, Germany",,,1,,,,47.9960901,7.8494005,True,DE,Germany
"St Francisville, West Feliciana, Louisiana, USA",,,1,,,,30.7807244,-91.3763353,True,US,USA
"Bayou Sara, West Feliciana, Louisiana, USA",,,1,,,,30.7923154,-91.4341563,True,US,USA
"Winchester, Independent Cities, Virginia, USA",,,1,,,,37.1232245,-78.4927721,True,US,USA
"Winchester, Frederick, Virginia, USA",,,1,,,,39.1433678,-78.1436909,True,US,USA
"New Orleans, Orleans, Louisiana, USA",,,1,,,,29.9559145,-90.0730259,True,US,USA
"Rhode Island, USA",,,1,,,,41.7962409,-71.5992372,True,US,USA
"Fairview, Todd, Kentucky, USA",,,1,,,,36.8424972,-87.3008989,True,US,USA
"St James Parish, Louisiana, USA",,,1,,,,30.0096684,-90.7989525,True,US,USA
"Orange, Virginia, USA",,,1,,,,38.2490349,-78.013983,True,US,USA
"Louisville, Jefferson, Georgia, USA",,,1,,,,33.0015407,-82.4112377,True,US,USA
"Perrysville, Ashland, Ohio, USA",,,1,,,,40.6575594,-82.3115503,True,US,USA
"Green Township, Ashland, Ohio, USA",,,1,,,,40.6933377,-82.280256,True,US,USA
"Stony Batter, Mercersburg, Franklin, Pennsylvania, USA",,,1,,,,39.8282214,-77.9037226,True,US,USA
"Tyrone, Galway, Ireland",,,1,,,,53.2030043,-8.9196593,True,IE,Ireland
"Lemasters, Franklin, Pennsylvania, USA",,,1,,,,39.8612026,-77.8594413,True,US,USA
"Lancaster, Lancaster, Pennsylvania, USA",,,1,,,,40.0379958,-76.3056707,True,US,USA
"Greensburg, Westmoreland, Pennsylvania, USA",,,1,,,,40.3024514,-79.5443274,True,US,USA
"Franklin, Pennsylvania, USA",,,1,,,,39.9259345,-77.7485516,True,US,USA
"Hillsboro, Hillsborough, New Hampshire, USA",,,1,,,,43.1306345,-71.975915,True,US,USA
"Concord, Merrimack, New Hampshire, USA",,,1,,,,43.207178,-71.537476,True,US,USA
"Hampton, Rockingham, New Hampshire, USA",,,1,,,,42.9417199,-70.8378746,True,US,USA
"Hillsborough, New Hampshire, USA",,,1,,,,42.9373379,-71.751376,True,US,USA
"Fairfield, Franklin, Vermont, USA",,,1,,,,44.8016403,-72.945525,True,US,USA
"Albany, New York, USA",,,1,,,,42.6511674,-73.754968,True,US,USA
"Culpeper, Culpeper, Virginia, USA",,,1,,,,38.4733823,-77.9961275,True,US,USA
"Menands, Albany, New York, USA",,,1,,,,42.6920233,-73.7245639,True,US,USA
"Englewood, Bergen, New Jersey, USA",,,1,,,,40.8929329,-73.9726508,True,US,USA
"Colorado Springs, El Paso, Colorado, USA",,,1,,,,38.8339578,-104.825348,True,US,USA
"Mount Kisco, Westchester, New York, USA",,,1,,,,41.2042616,-73.7270761,True,US,USA
"West Chester, Chester, Pennsylvania, USA",,,1,,,,39.9597213,-75.6059638,True,US,USA
"Point Pleasant, Clermont, Ohio, USA",,,1,,,,38.8945107,-84.2338243,True,US,USA
"Grants Tomb, Riverside Park, New York, New York, New York, USA",,,1,,,,40.8068797,-73.9686596,True,US,USA
"Mount McGregor, Moreau, Saratoga, New York, USA",,,1,,,,43.1982984,-73.7497,True,US,USA
"White Haven, St Louis, Missouri, USA",,,1,,,,38.6280278,-90.1910154,True,US,USA
"Bethel, Clermont, Ohio, USA",,,1,,,,38.9636771,-84.0807664,True,US,USA
"San Diego, San Diego, California, USA",,,1,,,,32.7174202,-117.162772,True,US,USA
"Sandberg, Los Angeles, California, USA",,,1,,,,34.726046,-118.681498,True,US,USA
"Washington, Wisconsin, USA",,,1,,,,43.3734986,-88.2370888,True,US,USA
"Hardscrabble, Somerset, New Jersey, USA",,,1,,,,40.7498609,-74.5676751,True,US,USA
"Los Altos, Santa Clara, California, USA",,,1,,,,37.3790629,-122.116578,True,US,USA
"Adrian, Lenawee, Michigan, USA",,,1,,,,41.8975152,-84.0373054,True,US,USA
"San Diego, California, USA",,,1,,,,32.7174202,-117.162772,True,US,USA
"Capri, Napoli, Campania, Italy",,,1,,,,40.5488429,14.2283708,True,IT,Italy
"Warwick, Cecil, Maryland, USA",,,1,,,,39.4167785,-75.7782679,True,US,USA
"Orange, Ashland, Ohio, USA",,,1,,,,40.9470142,-82.282169,True,US,USA
"Lakeview Cemetery, Cleveland, Cuyahoga, Ohio, USA",,,1,,,,41.5116874,-81.5888347,True,US,USA
"Elberon, Monmouth, New Jersey, USA",,,1,,,,40.2692785,-73.9918038,True,US,USA
"Cleveland, Cuyahoga, Ohio, USA",,,1,,,,41.4996574,-81.6936772,True,US,USA
"Garrettsville, Portage, Ohio, USA",,,1,,,,41.284222,-81.096486,True,US,USA
"Hiram, Portage, Ohio, USA",,,1,,,,41.312555,-81.14371,True,US,USA
"Williamstown, Berkshire, Massachusetts, USA",,,1,,,,42.7135472,-73.2094566,True,US,USA
"Mentor, Lake, Ohio, USA",,,1,,,,41.6664781,-81.3399769,True,US,USA
"Falmouth, Barnstable, Massachusetts, USA",,,1,,,,41.5514979,-70.6147519,True,US,USA
USA,,,1,,,,39.7837304,-100.445882,True,US,USA
"Spiegel Grove, Fremont, Sandusky, Ohio, USA",,,1,,,,41.340429,-83.1305712,True,US,USA
"Delaware, Delaware, Indiana, USA",,,1,,,,40.2445757,-85.3962329,True,US,USA
"Fremont, Sandusky, Ohio, USA",,,1,,,,41.3473413,-83.1134972,True,US,USA
"Chillicothe, Ross, Ohio, USA",,,1,,,,39.3331197,-82.9824019,True,US,USA
"Toledo, Lucas, Ohio, USA",,,1,,,,41.6529143,-83.5378173,True,US,USA
"Marion, Ohio, USA",,,1,,,,40.5885271,-83.1895249,True,US,USA
"Tampa, Hillsborough, Florida, USA",,,1,,,,27.9477595,-82.458444,True,US,USA
"Charleston, Kanawha, West Virginia, USA",,,1,,,,38.3505995,-81.6332812,True,US,USA
"Lewiston, Androscoggin, Maine, USA",,,1,,,,44.0990717,-70.2177099,True,US,USA
"Croton-on-Hudson, Westchester, New York, USA",,,1,,,,41.2088215,-73.8905175,True,US,USA
"Erie, Ohio, USA",,,1,,,,41.3506462,-82.640448,True,US,USA
"Clearwater, Pinellas, Florida, USA",,,1,,,,27.9658533,-82.8001026,True,US,USA
"Niles, Trumbull, Ohio, USA",,,1,,,,41.1808345,-80.7653797,True,US,USA
"Canton, Stark, Ohio, USA",,,1,,,,40.7985464,-81.3749508,True,US,USA
"Wolf Creek, Mercer, Pennsylvania, USA",,,1,,,,41.2181436,-80.0642333,True,US,USA
"Lisbon, Columbiana, Ohio, USA",,,1,,,,40.7720044,-80.7681336,True,US,USA
"Bryn Mawr, Montgomery, Pennsylvania, USA",,,1,,,,40.0238245,-75.3173407,True,US,USA
"Waterbury, New Haven, Connecticut, USA",,,1,,,,41.3721849,-72.858108,True,US,USA
"East Baintree, Norfolk, Massachusetts, USA",,,1,,,,42.1538607,-71.1828015,True,US,USA
St Kitts and Nevis,St Kitts and Nevis,,1,,,,17.333333,-62.75,False,NONE,
"Winona, Minnesota, USA",,,1,,,,44.0500054,-91.6392294,True,US,USA
"Blooming Grove, Richland, Ohio, USA",,,1,,,,40.9476027,-82.5329796,True,US,USA
"Marion, Marion, Ohio, USA",,,1,,,,40.5886259,-83.1287349,True,US,USA
"Howard, Knox, Ohio, USA",,,1,,,,40.4088223,-82.3268249,True,US,USA
"Welches, Clackamas, Oregon, USA",,,1,,,,45.3384997,-121.9634026,True,US,USA
"Asbury Park, Monmouth, New Jersey, USA",,,1,,,,40.2203907,-74.0120817,True,US,USA
"Quincy, Norfolk, Massachusetts, USA",,,1,,,,42.2509914,-71.0037374,True,US,USA
"Speaker's Room, Congress, Washington, District of Columbia, USA",,,1,,,,38.8886738,-77.004636,True,US,USA
"Long Island City, Queens, New York, USA",,,1,,,,40.7455316,-73.9484995,True,US,USA
"Lebanon, Madison, New York, USA",,,1,,,,42.7814571,-75.6476841,True,US,USA
"Kent, England",,,1,,,,51.2070749,0.7210362,True,GB,England
"Berlin, Berlin, Germany",,,1,,,,52.5103817,13.4349112,True,DE,Germany
"Saint Petersburg, Russia",,,1,,,,59.9606739,30.1586551,True,RU,Russian Federation
"Medford, Middlesex, Massachusetts, USA",,,1,,,,42.4184296,-71.1061639,True,US,USA
"Shadwell, Albemarle, Virginia, USA",,,1,,,,38.0129175,-78.3955647,True,US,USA
"Monticello, Charlottesville, Albemarle, Virginia, USA",,,1,,,,38.0002518,-78.4888829,True,US,USA
"Charlottesville, Independent Cities, Virginia, USA",,,1,,,,37.1232245,-78.4927721,True,US,USA
"Richmond, Henrico, Virginia, USA",,,1,,,,37.5922778,-77.4193382,True,US,USA
"Eppington, Winterpock, Chesterfield, Virginia, USA",,,1,,,,37.3459831,-77.7194396,True,US,USA
"Tuckahoe, Goochland, Virginia, USA",,,1,,,,37.5807024,-77.6438793,True,US,USA
"City Point, Virginia, USA",,,1,,,,37.3058161,-77.2974695,True,US,USA
"Millbrook, Buckingham, Virginia, USA",,,1,,,,37.5558826,-78.5547172,True,US,USA
"Chesterfield, Virginia, USA",,,1,,,,37.3859982,-77.578509,True,US,USA
"Goochland, Virginia, USA",,,1,,,,37.7204342,-77.8837984,True,US,USA
"Goochland, Goochland, Virginia, USA",,,1,,,,37.696066,-77.8979038,True,US,USA
"Dunlora, Virginia, USA",,,1,,,,38.066894,-78.4543399,True,US,USA
"Henrico, Virginia, USA",,,1,,,,37.5131191,-77.3465081,True,US,USA
"Tuckahoe, Henrico, Virginia, USA",,,1,,,,37.5901463,-77.5563761,True,US,USA
"Port Conway, King George, Virginia, USA",,,1,,,,38.1773528,-77.1860884,True,US,USA
"Montpelier Station, Orange, Virginia, USA",,,1,,,,38.2283821,-78.1767752,True,US,USA
"Guilford, North Carolina, USA",,,1,,,,36.0875688,-79.7888515,True,US,USA
"Loudoun, Virginia, USA",,,1,,,,39.0984586,-77.6705008,True,US,USA
"Paris, Île-de-France, France",,,1,,,,48.8588897,2.320041,True,FR,France
"Aldie, Loudoun, Virginia, USA",,,1,,,,38.975841,-77.6460477,True,US,USA
"Williamsburg, James City County, Virginia, USA",,,1,,,,37.2328361,-76.6440645,True,US,USA
"Waxhaws, South Carolina, USA",,,1,,,,34.1153257,-81.2971193,True,US,USA
"Pittsylvania, Virginia, USA",,,1,,,,36.8121678,-79.4364106,True,US,USA
"The Hermitage, Nashville, Davidson, Tennessee, USA",,,1,,,,36.2150137,-86.6129797,True,US,USA
"Kinderhook, Columbia, New York, USA",,,1,,,,42.3953617,-73.6978983,True,US,USA
"Lindenwald, Kinderhook, Columbia, New York, USA",,,1,,,,42.3698216,-73.7040339,True,US,USA
"Albany, Albany, New York, USA",,,1,,,,42.6511674,-73.754968,True,US,USA
"Columbia, New York, USA",,,1,,,,42.2415027,-73.6723456,True,US,USA
"Hudson, New Jersey, USA",,,1,,,,40.7381635,-74.0550731,True,US,USA
"Paris, Paris, Île-de-France, France",,,1,,,,48.8588897,2.320041,True,FR,France
"Beacon, Dutchess, New York, USA",,,1,,,,41.5048402,-73.9695409,True,US,USA
"Sumter, South Carolina, USA",,,1,,,,33.9204354,-80.3414693,True,US,USA
"Bournemouth, Hampshire, England",,,1,,,,50.8102455,-1.1497009,True,GB,England
"Stonewall, Gillespie, Texas, USA",,,1,,,,30.2359344,-98.6646189,True,US,USA
"Karnack, Harrison, Texas, USA",,,1,,,,32.6679232,-94.1704653,True,US,USA
"Austin, Travis, Texas, USA",,,1,,,,30.2711286,-97.7436995,True,US,USA
"Locke, Cayuga, New York, USA",,,1,,,,42.6605817,-76.4305376,True,US,USA
"Stillwater, Saratoga, New York, USA",,,1,,,,42.9384101,-73.6531731,True,US,USA
"Morristown, Morris, New Jersey, USA",,,1,,,,40.7970382,-74.4809868,True,US,USA
"Bennington, Bennington, Vermont, USA",,,1,,,,42.8788667,-73.1968205,True,US,USA
"East Aurora, Erie, New York, USA",,,1,,,,42.7689141,-78.6177611,True,US,USA
"Aurora, Cayuga County, New York, USA",,,1,,,,42.7539591,-76.7024485,True,US,USA
"Scott, Virginia, USA",,,1,,,,36.7117473,-82.5893052,True,US,USA
"Hanover, Virginia, USA",,,1,,,,37.744783,-77.4464165,True,US,USA
"Wake, North Carolina, USA",,,1,,,,35.7979355,-78.6118311,True,US,USA
"Carlisle, Cumberland, England",,,1,,,,54.8948478,-2.9362311,True,GB,England
"Tyrone, Northern Ireland",,,1,,,,54.6353341,-7.2611485,True,GB,United Kingdom
"Pikeville, Bledsoe, Tennessee, USA",,,1,,,,35.6054921,-85.1892276,True,US,USA
"Orange, North Carolina, USA",,,1,,,,36.0605095,-79.1172679,True,US,USA
"Washington, Indiana, USA",,,1,,,,38.5612578,-86.1179768,True,US,USA
"El Dorado, California, USA",,,1,,,,38.7574137,-120.5276129,True,US,USA
"Hockessin, New Castle, Delaware, USA",,,1,,,,39.7874275,-75.6879987,True,US,USA
"London Grove, Chester, Pennsylvania, USA",,,1,,,,39.8686308,-75.771824,True,US,USA
"Sullivan, Tennessee, USA",,,1,,,,36.4966673,-82.286903,True,US,USA
"Carter, Tennessee, USA",,,1,,,,36.2840805,-82.1194772,True,US,USA
"Holywell, Herefordshire, England",,,1,,,,52.055803,-2.6813638,True,GB,England
"Westminster, London, England",,,1,,,,51.5004439,-0.1265398,True,GB,England
"Spartanburg, Spartanburg, South Carolina, USA",,,1,,,,34.9498007,-81.9320157,True,US,USA
"Honolulu, Honolulu, Hawaii, USA",,,1,,,,21.304547,-157.855676,True,US,USA
"Midland, Midland, Texas, USA",,,1,,,,31.9973662,-102.077948,True,US,USA
"White Marsh, Gloucester, Virginia, USA",,,1,,,,37.3423646,-76.5213397,True,US,USA
"Gallatin, Sumner, Tennessee, USA",,,1,,,,36.3883031,-86.4475898,True,US,USA
"Narragansett Pier, Washington, Rhode Island, USA",,,1,,,,41.4262048,-71.4748061,True,US,USA
"Columbus, Muscogee, Georgia, USA",,,1,,,,32.4610708,-84.9880449,True,US,USA
"Boone, Boone, Illinois, USA",,,1,,,,42.3694695,-88.7447988,True,US,USA
"Denver, Denver, Colorado, USA",,,1,,,,39.6766157,-104.9623745,True,US,USA
"Autauga, Alabama, USA",,,1,,,,32.5165255,-86.6319403,True,US,USA
"Scottsville, Harrison, Texas, USA",,,1,,,,32.5404281,-94.2382471,True,US,USA
"Harrison, Texas, USA",,,1,,,,32.5233959,-94.3982158,True,US,USA
"Marshall, Harrison, Texas, USA",,,1,,,,32.5447756,-94.3661004,True,US,USA
"Frankfurt am Main, Frankfurt am Main, Hessen, Germany",,,1,,,,50.2164354,8.6915513,True,DE,Germany
"Artesia, Los Angeles, California, USA",,,1,,,,33.8653563,-118.0806221,True,US,USA
"Port Byron, Rock Island, Illinois, USA",,,1,,,,41.6063216,-90.3357762,True,US,USA
"Long Island City, Queens County, New York, USA",,,1,,,,40.7455316,-73.9484995,True,US,USA
"Wayne, Ohio, USA",,,1,,,,40.8615819,-81.9034617,True,US,USA
"Wooster, Wayne, Ohio, USA",,,1,,,,40.7980976,-81.9397733,True,US,USA
"Millwood, Knox, Ohio, USA",,,1,,,,40.3995094,-82.2776566,True,US,USA
"Fullerton, Orange, California, USA",,,1,,,,33.8708215,-117.929416,True,US,USA
"Orange, California, USA",,,1,,,,33.750631,-117.8722311,True,US,USA
"Richland, Vinton, Ohio, USA",,,1,,,,39.1870147,-82.5973848,True,US,USA
"California, USA",,,1,,,,36.7014631,-118.755997,True,US,USA
"Lima, Delaware, Pennsylvania, USA",,,1,,,,39.9195322,-75.4427497,True,US,USA
"Chester, Delaware, Pennsylvania, USA",,,1,,,,39.849557,-75.3557458,True,US,USA
"Landwade, Suffolk, England",,,1,,,,52.2843001,0.385672,True,GB,England
"Wallington, Hertfordshire, England",,,1,,,,51.9872386,-0.1190634,True,GB,England
"Ludgershall, Wiltshire, England",,,1,,,,51.256957,-1.6233744,True,GB,England
"Hornell, Steuben, New York, USA",,,1,,,,42.3278477,-77.6611025,True,US,USA
"Overpeck, Butler, Ohio, USA",,,1,,,,39.45089,-84.5143903,True,US,USA
"Oxford, Calhoun, Alabama, USA",,,1,,,,33.6149211,-85.8339391,True,US,USA
"Beaver, Beaver, Pennsylvania, USA",,,1,,,,40.6953896,-80.3047887,True,US,USA
France,,,1,,,,46.603354,1.8883335,True,FR,France
"Fredericksburg, Independent Cities, Virginia, USA",,,1,,,,37.1232245,-78.4927721,True,US,USA
"Hatteras, Dare, North Carolina, USA",,,1,,,,35.2252064,-75.5279144,True,US,USA
"Hartford, Windsor, Vermont, USA",,,1,,,,43.6488351,-72.3193634,True,US,USA
"Portage, Ohio, USA",,,1,,,,41.1496775,-81.2082,True,US,USA
"Pickaway, Ohio, USA",,,1,,,,39.6725327,-83.0373284,True,US,USA
"Santa Barbara, Santa Barbara, California, USA",,,1,,,,34.4221319,-119.702667,True,US,USA
"Salem Center, Westchester, New York, USA",,,1,,,,41.3292613,-73.5981827,True,US,USA
"Thermal, Riverside, California, USA",,,1,,,,33.6275782,-116.1250453,True,US,USA
"Berkeley, Alameda, California, USA",,,1,,,,37.8708393,-122.272863,True,US,USA
"Tokyo, Tokyo, Japan",,,1,,,,35.6812546,139.766706,True,JP,Japan
"Santa Monica, Los Angeles, California, USA",,,1,,,,34.0194704,-118.491227,True,US,USA
"Preston, Lancashire, England",,,1,,,,53.7593363,-2.6992717,True,GB,England
"St Louis, Independent Cities, Missouri, USA",,,1,,,,38.7604815,-92.5617875,True,US,USA
"Cumberland, Allegany, Maryland, USA",,,1,,,,39.6526498,-78.762383,True,US,USA
"Liberty Heights, Fayette, Kentucky, USA",,,1,,,,38.0389664,-84.4657709,True,US,USA
"Amherst, Hillsborough, New Hampshire, USA",,,1,,,,42.8642874,-71.6252484,True,US,USA
"Brunswick, Cumberland, Maine, USA",,,1,,,,43.9166529,-69.9659438,True,US,USA
"Maine, USA",,,1,,,,45.709097,-68.8590201,True,US,USA
"Southold, Suffolk, New York, USA",,,1,,,,41.067221,-72.4408007,True,US,USA
"Walpack, Sussex, New Jersey, USA",,,1,,,,41.1358864,-74.895777,True,US,USA
"Wallpack Center, Sussex, New Jersey, USA",,,1,,,,41.1588924,-74.880231,True,US,USA
"Cook, Illinois, USA",,,1,,,,41.8197385,-87.756525,True,US,USA
"Kalamazoo, Kalamazoo, Michigan, USA",,,1,,,,42.291707,-85.5872286,True,US,USA
"Hollywood, Broward, Florida, USA",,,1,,,,26.0112014,-80.1494901,True,US,USA
"Elkhart, Elkhart, Indiana, USA",,,1,,,,41.6819935,-85.9766671,True,US,USA
"Wichita, Kansas, USA",,,1,,,,37.6922361,-97.3375448,True,US,USA
"Rachuonyo, Nyang'oma, Nyanza, Kenya",,,1,,,,-0.0113313,34.3458874,True,KE,Kenya
"Nairobi, Nairobi Area, Kenya",,,1,,,,-1.3351471,36.8834114,True,KE,Kenya
"Putneys Mill, New Kent, Virginia, USA",,,1,,,,37.6053575,-77.0929718,True,US,USA
"Eastville, Northampton, Virginia, USA",,,1,,,,37.3526337,-75.9457726,True,US,USA
"Clarksburg, Harrison, West Virginia, USA",,,1,,,,39.2806451,-80.3445341,True,US,USA
"Philadelphia, Philadelphia, Pennsylvania, USA",,,1,,,,39.9527237,-75.1635262,True,US,USA
"Accomack, Virginia, USA",,,1,,,,37.7422207,-75.6743538,True,US,USA
"Hermitage, Davidson, Tennessee, USA",,,1,,,,36.1961664,-86.6224959,True,US,USA
"Schenectady, Schenectady, New York, USA",,,1,,,,42.8142432,-73.9395687,True,US,USA
"Fort Washington, Prince George's, Maryland, USA",,,1,,,,38.7379948,-77.0043136,True,US,USA
"Decaturville, Decatur, Tennessee, USA",,,1,,,,35.5842372,-88.119479,True,US,USA
"Decatur, Tennessee, USA",,,1,,,,35.6067875,-88.1083982,True,US,USA
"Yates City, Knox, Illinois, USA",,,1,,,,40.7790141,-90.0153424,True,US,USA
"Monmouth, Warren, Illinois, USA",,,1,,,,40.9127103,-90.6472477,True,US,USA
"Emporium, Cameron, Pennsylvania, USA",,,1,,,,41.5114521,-78.2352872,True,US,USA
"Swissmont, Elk, Pennsylvania, USA",,,1,,,,41.4767287,-78.4875196,True,US,USA
"Thal, Steiermark, Austria",,,1,,,,47.0792405,15.3549817,True,AT,Austria
"Texarkana, Miller, Arkansas, USA",,,1,,,,33.4254259,-94.0430937,True,US,USA
"Nevada, Arkansas, USA",,,1,,,,33.6413476,-93.3055491,True,US,USA
"Harris, Georgia, USA",,,1,,,,32.7251788,-84.9104641,True,US,USA
"Craven, North Carolina, USA",,,1,,,,35.0808574,-77.0439978,True,US,USA
"Kennington, Surrey, England",,,1,,,,51.2715316,-0.3414524,True,GB,England
"Redstone, Fayette, Pennsylvania, USA",,,1,,,,40.074796,-79.8036548,True,US,USA
"Abington, Lackawanna, Pennsylvania, USA",,,1,,,,41.5562923,-75.6864948,True,US,USA
"Jennings, Indiana, USA",,,1,,,,38.9957749,-85.6359201,True,US,USA
"Baltimore Highlands, Baltimore, Maryland, USA",,,1,,,,39.2929083,-76.5663087,True,US,USA
"Fermanagh Township, Juniata, Pennsylvania, USA",,,1,,,,40.6129018,-77.4112056,True,US,USA
"Northumberland, Pennsylvania, USA",,,1,,,,40.8488473,-76.6943741,True,US,USA
"Joppa, Harford, Maryland, USA",,,1,,,,39.433719,-76.3577373,True,US,USA
"Sadsbury, Chester, Pennsylvania, USA",,,1,,,,39.9817979,-75.9052465,True,US,USA
"Timahoe, Kildare, Ireland",,,1,,,,53.3333288,-6.8371788,True,IE,Ireland
"Washington, Kentucky, USA",,,1,,,,37.7310874,-85.1750475,True,US,USA
"Concord, Butler, Pennsylvania, USA",,,1,,,,40.9923692,-79.8322352,True,US,USA
"Huntington, Suffolk, New York, USA",,,1,,,,40.868154,-73.425676,True,US,USA
"Wiltshire, England",,,1,,,,51.324162,-1.9032487,True,GB,England
"Elvington, Yorkshire, England",,,1,,,,53.9238188,-0.9881338,True,GB,England
"Aston le Walls, Northamptonshire, England",,,1,,,,52.1546172,-1.2742734,True,GB,England
"Newnham, Northamptonshire, England",,,1,,,,52.2333842,-1.1430051,True,GB,England
"Randolph, Missouri, USA",,,1,,,,39.4418988,-92.5009215,True,US,USA
"Henry, Kentucky, USA",,,1,,,,38.447983,-85.1191168,True,US,USA
"Troy, Albany, New York, USA",,,1,,,,42.7007477,-73.7045259,True,US,USA
"Kingston, Ulster, New York, USA",,,1,,,,41.9287812,-74.0023825,True,US,USA
"Waterford, Saratoga, New York, USA",,,1,,,,42.7925778,-73.6812293,True,US,USA
"Plainfield, Windham, Connecticut, USA",,,1,,,,41.7326541,-71.9041463,True,US,USA
"Knoxville, Knox, Tennessee, USA",,,1,,,,35.9603948,-83.9210261,True,US,USA
"St. Andrew's Church, Clifton, Bristol, Gloucestershire, England",,,1,,,,51.8527674,-2.2553694,True,GB,England
"St Thomas Church, New York, New York, New York, USA",,,1,,,,43.0718511,-75.3317783,True,US,USA
"Warrensburg, Greene, Tennessee, USA",,,1,,,,36.1273197,-83.094326,True,US,USA
"Hot Springs, Madison, North Carolina, USA",,,1,,,,35.8923253,-82.8290318,True,US,USA
"Roswell, Fulton, Georgia, USA",,,1,,,,34.02332,-84.360022,True,US,USA
"Madrid, Madrid, Madrid, Spain",,,1,,,,40.4237276,-3.6899043,True,ES,Spain
"Fort Monroe, Elizabeth, Virginia, USA",,,1,,,,36.8935018,-76.3314764,True,US,USA
"Newport, Rhode Island, USA",,,1,,,,41.4899827,-71.3137707,True,US,USA
"Kent, Michigan, USA",,,1,,,,43.0024013,-85.5502718,True,US,USA
"Ch of Ascension, New York, New York, New York, USA",,,1,,,,40.8018644,-73.9663287,True,US,USA
"Bristol, Bucks, Pennsylvania, USA",,,1,,,,40.1229002,-74.8644706,True,US,USA
"Westminster, Abbey, London, England",,,1,,,,51.4981579,-0.1319441,True,GB,England
"Independence, Clay, Missouri, USA",,,1,,,,39.3187409,-94.4046405,True,US,USA
"Malibu, Los Angeles, California, USA",,,1,,,,34.035591,-118.689423,True,US,USA
"Los Angeles, California, USA",,,1,,,,34.0536909,-118.242766,True,US,USA
"Burlington, Des Moines, Iowa, USA",,,1,,,,40.8126922,-91.1020205,True,US,USA
"Colorado, USA",,,1,,,,38.7251776,-105.607716,True,US,USA
"Miami Beach, Miami-Dade, Florida, USA",,,1,,,,25.7929198,-80.1353006,True,US,USA
"Qualicum Beach, British Columbia, Canada",,,1,,,,49.3479861,-124.4439409,True,CA,Canada
"Dutchess, New York, USA",,,1,,,,41.7194303,-73.7516205,True,US,USA
"Nahant, Essex, Massachusetts, USA",,,1,,,,42.4264859,-70.9189371,True,US,USA
"Monterey, California, USA",,,1,,,,36.2231079,-121.387742,True,US,USA
"Stanford, Santa Clara, California, USA",,,1,,,,37.4265407,-122.1703055,True,US,USA
"Prairie du Chien, Crawford, Wisconsin, USA",,,1,,,,43.05194,-91.1409933,True,US,USA
"Calvary Church, New York, New York, New York, USA",,,1,,,,40.7389229,-73.9867394,True,US,USA
"Shaker Heights, Cuyahoga, Ohio, USA",,,1,,,,41.4739419,-81.5370671,True,US,USA
"Harewood, Jefferson, West Virginia, USA",,,1,,,,39.3023235,-77.9161076,True,US,USA
"Trinity E Church, New York, New York, New York, USA",,,1,,,,40.7260202,-73.9801228,True,US,USA
"Davidson, Tennessee, USA",,,1,,,,36.189724,-86.7857862,True,US,USA
"Catskill, Greene, New York, USA",,,1,,,,42.2173102,-73.8645734,True,US,USA
"Spotsylvania, Virginia, USA",,,1,,,,38.1880936,-77.6741751,True,US,USA
"Washington, Tennessee, USA",,,1,,,,36.2636501,-82.4911791,True,US,USA
"Madison, Mississippi, USA",,,1,,,,32.6308318,-90.0040817,True,US,USA
"Midland, Texas, USA",,,1,,,,31.83688,-102.0103767,True,US,USA
"Richland, Ohio, USA",,,1,,,,40.776322,-82.5302254,True,US,USA
"Minnesota, USA",,,1,,,,45.9896587,-94.6113288,True,US,USA
"Cattaraugus, New York, USA",,,1,,,,42.2234823,-78.6477096,True,US,USA
